[
  {
    "name": "Kirkens Bymisjon Arendal",
    "description": "Local office / day services lead",
    "organization": "Kirkens Bymisjon",
    "type": "community",
    "address": "Torvet 2, 4836 Arendal",
    "city": "Arendal",
    "coordinates": [8.7722, 58.4615],
    "source": "https://kirkensbymisjon.no/kontakt/"
  },
  {
    "name": "Kirkens Bymisjon Bergen",
    "description": "Local office / day services lead",
    "organization": "Kirkens Bymisjon",
    "type": "community",
    "address": "Kong Oscars gate 62, 5017 Bergen",
    "city": "Bergen",
    "coordinates": [5.3317, 60.3926],
    "source": "https://kirkensbymisjon.no/kontakt/"
  },
  {
    "name": "Kirkens Bymisjon Bodø",
    "description": "Local office / day services lead",
    "organization": "Kirkens Bymisjon",
    "type": "community",
    "address": "Bankgata 9, 8006 Bodø",
    "city": "Bodø",
    "coordinates": [14.388374, 67.28548],
    "source": "https://kirkensbymisjon.no/kontakt/"
  },
  {
    "name": "Kirkens Bymisjon Kristiansand",
    "description": "Local office / day services lead",
    "organization": "Kirkens Bymisjon",
    "type": "community",
    "address": "Gravane 6, 4610 Kristiansand",
    "city": "Kristiansand",
    "coordinates": [7.995379, 58.141552],
    "source": "https://kirkensbymisjon.no/kontakt/"
  },
  {
    "name": "Kirkens Bymisjon Mosjøen",
    "description": "Local office / day services lead",
    "organization": "Kirkens Bymisjon",
    "type": "community",
    "address": "C. M. Havigs gate 15, 8656 Mosjøen",
    "city": "Mosjøen",
    "coordinates": [13.1900161, 65.8381828],
    "source": "https://kirkensbymisjon.no/kontakt/"
  },
  {
    "name": "Kirkens Bymisjon Tromsø",
    "description": "Local office / day services lead",
    "organization": "Kirkens Bymisjon",
    "type": "community",
    "address": "Parkgata 22, 9008 Tromsø",
    "city": "Tromsø",
    "coordinates": [18.952096, 69.650954],
    "source": "https://kirkensbymisjon.no/kontakt/"
  },
  {
    "name": "Kirkens Bymisjon Trondheim",
    "description": "Local office / day services lead",
    "organization": "Kirkens Bymisjon",
    "type": "community",
    "address": "Munkegata 4, 7013 Trondheim",
    "city": "Trondheim",
    "coordinates": [10.3963, 63.4282],
    "source": "https://kirkensbymisjon.no/kontakt/"
  },
  {
    "name": "Kirkens Bymisjon Ålesund",
    "description": "Local office / day services lead",
    "organization": "Kirkens Bymisjon",
    "type": "community",
    "address": "Parkgata 9, 6003 Ålesund",
    "city": "Ålesund",
    "coordinates": [6.1636, 62.4724],
    "source": "https://kirkensbymisjon.no/kontakt/"
  },
  {
    "name": "Kirkens Bymisjon Porsgrunn",
    "description": "Local office / day services lead",
    "organization": "Kirkens Bymisjon",
    "type": "community",
    "address": "Storgata 141, 3915 Porsgrunn",
    "city": "Porsgrunn",
    "coordinates": [9.654239, 59.140351],
    "source": "https://kirkensbymisjon.no/kontakt/"
  },
  {
    "name": "Kirkens Bymisjon Tønsberg",
    "description": "Local office / day services lead",
    "organization": "Kirkens Bymisjon",
    "type": "community",
    "address": "Storgaten 7–9, 3126 Tønsberg",
    "city": "Tønsberg",
    "coordinates": [10.409372860278912, 59.26576528134484],
    "source": "https://kirkensbymisjon.no/kontakt/"
  },
  {
    "name": "Kirkens Bymisjon Oslo",
    "description": "Local office / day services lead",
    "organization": "Kirkens Bymisjon",
    "type": "community",
    "address": "Tollbugata 3, 0152 Oslo",
    "city": "Oslo",
    "coordinates": [10.7472798, 59.9097624],
    "source": "https://kirkensbymisjon.no/kontakt/"
  },
  {
    "name": "Matsentralen Innlandet",
    "description": "Food redistribution (NGOs only)",
    "organization": "Matsentralen",
    "type": "foodbank",
    "address": "Stolvstadlia 7b, 2360 Rudshøgda",
    "city": "Rudshøgda",
    "coordinates": [10.8848, 60.8189],
    "source": "https://www.matsentralen.no/finn-matsentralen"
  },
  {
    "name": "Matsentralen Nord-Norge",
    "description": "Food redistribution (NGOs only)",
    "organization": "Matsentralen",
    "type": "foodbank",
    "address": "Strandveien 144c, 9006 Tromsø",
    "city": "Tromsø",
    "coordinates": [18.9745, 69.6433],
    "source": "https://www.matsentralen.no/finn-matsentralen"
  },
  {
    "name": "Matsentralen Oslo",
    "description": "Food redistribution (NGOs only)",
    "organization": "Matsentralen",
    "type": "foodbank",
    "address": "Gladengveien 17, 0661 Oslo",
    "city": "Oslo",
    "coordinates": [10.7916, 59.9113],
    "source": "https://www.matsentralen.no/finn-matsentralen"
  },
  {
    "name": "Matsentralen Rogaland",
    "description": "Food redistribution (NGOs only)",
    "organization": "Matsentralen",
    "type": "foodbank",
    "address": "Hoveveien 9, 4306 Sandnes",
    "city": "Sandnes",
    "coordinates": [5.7326, 58.8524],
    "source": "https://www.matsentralen.no/finn-matsentralen"
  },
  {
    "name": "Matsentralen Sør",
    "description": "Food redistribution (NGOs only)",
    "organization": "Matsentralen",
    "type": "foodbank",
    "address": "Barstølveien 46 A, 4636 Kristiansand",
    "city": "Kristiansand",
    "coordinates": [8.0182, 58.1754],
    "source": "https://www.matsentralen.no/finn-matsentralen"
  },
  {
    "name": "Matsentralen Trøndelag",
    "description": "Food redistribution (NGOs only)",
    "organization": "Matsentralen",
    "type": "foodbank",
    "address": "Nordslettvegen 3, 7038 Trondheim",
    "city": "Trondheim",
    "coordinates": [10.4426, 63.4008],
    "source": "https://www.matsentralen.no/finn-matsentralen"
  },
  {
    "name": "Matsentralen Vestfold og Telemark",
    "description": "Food redistribution (NGOs only)",
    "organization": "Matsentralen",
    "type": "foodbank",
    "address": "Hegdalveien 84, 3261 Larvik",
    "city": "Larvik",
    "coordinates": [10.0549, 59.0602],
    "source": "https://www.matsentralen.no/finn-matsentralen"
  },
  {
    "name": "Matsentralen Vestland",
    "description": "Food redistribution (NGOs only)",
    "organization": "Matsentralen",
    "type": "foodbank",
    "address": "Toppemyr 7, 5136 Mjølkeråen",
    "city": "Mjølkeråen",
    "coordinates": [5.2826, 60.4893],
    "source": "https://www.matsentralen.no/finn-matsentralen"
  },
  {
    "name": "Fattighuset Oslo",
    "description": "Free food & clothing distribution",
    "organization": "Fattighuset",
    "type": "community",
    "address": "Grønlandsleiret 39, 0190 Oslo",
    "city": "Oslo",
    "coordinates": [10.7649, 59.9103],
    "source": "https://fhio.no/utdeling/"
  },
  {
    "name": "Robin Hood Huset",
    "description": "Free meals & social support",
    "organization": "Stiftelsen Robin Hood Huset",
    "type": "community",
    "address": "Magnus Barfots gate 22, 5015 Bergen",
    "city": "Bergen",
    "coordinates": [5.3177, 60.3898],
    "source": "https://www.robinhoodhuset.no"
  },
  {
    "name": "Frelsesarmeen Trondheim Korps",
    "description": "Meals / community / day centre",
    "organization": "Frelsesarmeen",
    "type": "community",
    "address": "Prinsens gate 2C, 7012 Trondheim",
    "city": "Trondheim",
    "coordinates": [10.3956, 63.4338],
    "source": "https://frelsesarmeen.no/lokalavdeling/trondheim-korps"
  },
  {
    "name": "Frelsesarmeen Kristiansand Korps",
    "description": "Meals / community / day centre",
    "organization": "Frelsesarmeen",
    "type": "community",
    "address": "Østre Strandgate 11, 4610 Kristiansand",
    "city": "Kristiansand",
    "coordinates": [8.0021, 58.1454],
    "source": "https://frelsesarmeen.no/lokalavdeling/kristiansand-korps"
  },
  {
    "name": "Frelsesarmeen Drammen Korps",
    "description": "Meals / community / day centre",
    "organization": "Frelsesarmeen",
    "type": "community",
    "address": "Thornegata 2, 3015 Drammen",
    "city": "Drammen",
    "coordinates": [7.7435, 59.7439],
    "source": "https://frelsesarmeen.no/lokalavdeling/drammen-korps"
  },
  {
    "name": "Frelsesarmeen Stavanger Korps",
    "description": "Meals / community / day centre",
    "organization": "Frelsesarmeen",
    "type": "community",
    "address": "Kongsgata 50, 4005 Stavanger",
    "city": "Stavanger",
    "coordinates": [5.7331, 58.969],
    "source": "https://frelsesarmeen.no/lokalavdeling/stavanger-korps"
  },
  {
    "name": "Frelsesarmeen Oslo (HQ)",
    "description": "National HQ / info point",
    "organization": "Frelsesarmeen",
    "type": "community",
    "address": "Ensjøveien 23, 0661 Oslo",
    "city": "Oslo",
    "coordinates": [10.7961, 59.9125],
    "source": "https://frelsesarmeen.no"
  },
  {
    "name": "Oslo Røde Kors",
    "description": "Local association / info point",
    "organization": "Røde Kors",
    "type": "community",
    "address": "Hausmanns gate 23, 0182 Oslo",
    "city": "Oslo",
    "coordinates": [10.7526, 59.9161],
    "source": "https://www.rodekors.no/en/lokalforeninger/oslo/english-pages/"
  },
  {
    "name": "Bergen Røde Kors",
    "description": "Local association / administration",
    "organization": "Røde Kors",
    "type": "community",
    "address": "Sandviksbodene 66, 5035 Bergen",
    "city": "Bergen",
    "coordinates": [5.3272, 60.4096],
    "source": "https://www.rodekors.no/lokalforeninger/hordaland/bergen/kontakt-oss/"
  },
  {
    "name": "Trondheim Røde Kors",
    "description": "Local association / info point",
    "organization": "Røde Kors",
    "type": "community",
    "address": "Nardovegen 4B, 7032 Trondheim",
    "city": "Trondheim",
    "coordinates": [10.436, 63.4147],
    "source": "https://www.rodekors.no/lokalforeninger/trondelag/trondheim/kontakt-oss/"
  },
  {
    "name": "Kristiansand Røde Kors",
    "description": "Local association / info point",
    "organization": "Røde Kors",
    "type": "community",
    "address": "Vesterveien 6, 4616 Kristiansand S",
    "city": "Kristiansand",
    "coordinates": [7.988, 58.1464],
    "source": "https://www.rodekors.no/lokalforeninger/agder/kristiansand/om-kristiansand-rode-kors/kontakt-oss/"
  },
  {
    "name": "Vår Frue – åpen kirke",
    "description": "Warm space / open church",
    "organization": "Kirkens Bymisjon",
    "type": "community",
    "address": "Kongens gate 5, 7011 Trondheim",
    "city": "Trondheim",
    "coordinates": [10.3951, 63.4305],
    "source": "https://kirkensbymisjon.no/tilbud-var-frue-apen-kirke/kontaktinformasjon/"
  },
  {
    "name": "Møtestedet, Oslo",
    "description": "Low-threshold café & day centre",
    "organization": "Kirkens Bymisjon",
    "type": "community",
    "address": "Tollbugata 3, 0152 Oslo",
    "city": "Oslo",
    "coordinates": [10.7472798, 59.9097624],
    "source": "https://kirkensbymisjon.no/tilbud-motestedet/kontaktinformasjon/"
  },
  {
    "name": "Helsesenteret for papirløse migranter, Oslo",
    "description": "Free clinic for undocumented migrants",
    "organization": "Kirkens Bymisjon",
    "type": "health",
    "address": "Herslebs gate 43, 0578 Oslo",
    "city": "Oslo",
    "coordinates": [10.763, 59.9193],
    "source": "https://kirkensbymisjon.no/tilbud-helsesenteret-for-papirlose-migranter/kontaktinformasjon/"
  },
  {
    "name": "Helsesenteret for papirløse migranter, Bergen",
    "description": "Free clinic for undocumented migrants",
    "organization": "Kirkens Bymisjon",
    "type": "health",
    "address": "Kong Oscars gate 56, 5017 Bergen",
    "city": "Bergen",
    "coordinates": [5.3287, 60.3925],
    "source": "https://kirkensbymisjon.no/tilbud-helsesenteret-for-papirlose-migranter/kontaktinformasjon/"
  },
  {
    "name": "Akuttovernatting Oslo (Fattige tilreisende)",
    "description": "Emergency overnight shelter",
    "organization": "Kirkens Bymisjon",
    "type": "shelter",
    "address": "Louises gate 30, 0169 Oslo",
    "city": "Oslo",
    "coordinates": [10.7353, 59.9285],
    "source": "https://kirkensbymisjon.no/tilbud-fattige-tilreisende/kontaktinformasjon/"
  },
  {
    "name": "Bymisjonssenteret, Oslo",
    "description": "Community centre & services",
    "organization": "Kirkens Bymisjon",
    "type": "community",
    "address": "Herslebs gate 43, 0578 Oslo",
    "city": "Oslo",
    "coordinates": [10.763, 59.9193],
    "source": "https://kirkensbymisjon.no/tilbud-bymisjonssenteret/kontaktinformasjon/"
  }
]
